[{"id": "aMHOtT5WI4inmIV8kavmIw", "alias": "adey-abeba-ethiopian-restaurant-seattle", "name": "Adey Abeba Ethiopian Restaurant", "image_url": "https://s3-media1.fl.yelpcdn.com/bphoto/nQPg8hfsdSVG6wmX4pQW5g/o.jpg", "is_closed": false, "url": "https://www.yelp.com/biz/adey-abeba-ethiopian-restaurant-seattle?adjust_creative=Q_QuqfoFu2F6UgbKCZ1miA&utm_campaign=yelp_api_v3&utm_medium=api_v3_business_search&utm_source=Q_QuqfoFu2F6UgbKCZ1miA", "review_count": 188, "categories": [{"alias": "ethiopian", "title": "Ethiopian"}], "rating": 4.5, "coordinates": {"latitude": 47.61279550818363, "longitude": -122.30385065976738}, "transactions": ["delivery"], "price": "$$", "location": {"address1": "2123 E Union St", "address2": "", "address3": "", "city": "Seattle", "zip_code": "98122", "country": "US", "state": "WA", "display_address": ["2123 E Union St", "Seattle, WA 98122"]}, "phone": "+12063221617", "display_phone": "(206) 322-1617", "distance": 2757.012160911273}, {"id": "9bZtK6ca9AXFlv3FX9sRPQ", "alias": "adulis-eritrean-and-ethiopian-restaurant-seattle", "name": "Adulis Eritrean and Ethiopian Restaurant", "image_url": "https://s3-media3.fl.yelpcdn.com/bphoto/ZTUHU_9AyiVEkkAhQ3YPmA/o.jpg", "is_closed": false, "url": "https://www.yelp.com/biz/adulis-eritrean-and-ethiopian-restaurant-seattle?adjust_creative=Q_QuqfoFu2F6UgbKCZ1miA&utm_campaign=yelp_api_v3&utm_medium=api_v3_business_search&utm_source=Q_QuqfoFu2F6UgbKCZ1miA", "review_count": 6, "categories": [{"alias": "eritrean", "title": "Eritrean"}, {"alias": "ethiopian", "title": "Ethiopian"}], "rating": 4.0, "coordinates": {"latitude": 47.70562, "longitude": -122.35578}, "transactions": [], "location": {"address1": "10515 Greenwood Ave N", "address2": "", "address3": null, "city": "Seattle", "zip_code": "98133", "country": "US", "state": "WA", "display_address": ["10515 Greenwood Ave N", "Seattle, WA 98133"]}, "phone": "+12069205973", "display_phone": "(206) 920-5973", "distance": 9049.703501451375}, {"id": "mVe-ouCiPHElEXaAyfv1IA", "alias": "caf\u00e9-soleil-seattle-2", "name": "Caf\u00e9 Soleil", "image_url": "https://s3-media4.fl.yelpcdn.com/bphoto/oTv0zXVbUaDT-AQSiebsAg/o.jpg", "is_closed": false, "url": "https://www.yelp.com/biz/caf%C3%A9-soleil-seattle-2?adjust_creative=Q_QuqfoFu2F6UgbKCZ1miA&utm_campaign=yelp_api_v3&utm_medium=api_v3_business_search&utm_source=Q_QuqfoFu2F6UgbKCZ1miA", "review_count": 87, "categories": [{"alias": "ethiopian", "title": "Ethiopian"}, {"alias": "breakfast_brunch", "title": "Breakfast & Brunch"}, {"alias": "cafes", "title": "Cafes"}], "rating": 4.5, "coordinates": {"latitude": 47.61311, "longitude": -122.28909}, "transactions": ["delivery"], "price": "$$", "location": {"address1": "1400 34th Ave", "address2": "", "address3": "", "city": "Seattle", "zip_code": "98122", "country": "US", "state": "WA", "display_address": ["1400 34th Ave", "Seattle, WA 98122"]}, "phone": "+12063251126", "display_phone": "(206) 325-1126", "distance": 3741.3921044727595}, {"id": "uiuHZbOXHYXmV9ahQXNIZA", "alias": "shewa-ber-bar-and-restaurant-seattle", "name": "Shewa-Ber Bar & Restaurant", "image_url": "https://s3-media3.fl.yelpcdn.com/bphoto/QiGeQ44TJG4f_4mtL94lPg/o.jpg", "is_closed": false, "url": "https://www.yelp.com/biz/shewa-ber-bar-and-restaurant-seattle?adjust_creative=Q_QuqfoFu2F6UgbKCZ1miA&utm_campaign=yelp_api_v3&utm_medium=api_v3_business_search&utm_source=Q_QuqfoFu2F6UgbKCZ1miA", "review_count": 19, "categories": [{"alias": "ethiopian", "title": "Ethiopian"}, {"alias": "bars", "title": "Bars"}], "rating": 5.0, "coordinates": {"latitude": 47.5993552129099, "longitude": -122.30850036195254}, "transactions": [], "location": {"address1": "1801 S Jackson St", "address2": "", "address3": null, "city": "Seattle", "zip_code": "98144", "country": "US", "state": "WA", "display_address": ["1801 S Jackson St", "Seattle, WA 98144"]}, "phone": "+14252239000", "display_phone": "(425) 223-9000", "distance": 3535.3543110478195}, {"id": "-ZvCzmfQltMYgiGb_niOnQ", "alias": "cafe-selam-seattle", "name": "Cafe Selam", "image_url": "https://s3-media3.fl.yelpcdn.com/bphoto/QbT0A1WleUVaAgERYDxqhw/o.jpg", "is_closed": false, "url": "https://www.yelp.com/biz/cafe-selam-seattle?adjust_creative=Q_QuqfoFu2F6UgbKCZ1miA&utm_campaign=yelp_api_v3&utm_medium=api_v3_business_search&utm_source=Q_QuqfoFu2F6UgbKCZ1miA", "review_count": 330, "categories": [{"alias": "ethiopian", "title": "Ethiopian"}], "rating": 4.5, "coordinates": {"latitude": 47.60779, "longitude": -122.29707}, "transactions": ["delivery"], "price": "$$", "location": {"address1": "2715 E Cherry St", "address2": "Ste B", "address3": "", "city": "Seattle", "zip_code": "98122", "country": "US", "state": "WA", "display_address": ["2715 E Cherry St", "Ste B", "Seattle, WA 98122"]}, "phone": "+12063280404", "display_phone": "(206) 328-0404", "distance": 3482.878448911746}, {"id": "bVp5X7vrGt2j59NQmM8S8Q", "alias": "chef-cafe-seattle", "name": "Chef Cafe", "image_url": "https://s3-media1.fl.yelpcdn.com/bphoto/EKpMHHVX0jPMW94ZypCVbQ/o.jpg", "is_closed": false, "url": "https://www.yelp.com/biz/chef-cafe-seattle?adjust_creative=Q_QuqfoFu2F6UgbKCZ1miA&utm_campaign=yelp_api_v3&utm_medium=api_v3_business_search&utm_source=Q_QuqfoFu2F6UgbKCZ1miA", "review_count": 167, "categories": [{"alias": "ethiopian", "title": "Ethiopian"}], "rating": 4.0, "coordinates": {"latitude": 47.599392, "longitude": -122.303137}, "transactions": ["delivery"], "price": "$", "location": {"address1": "2200 S Jackson St", "address2": "", "address3": "", "city": "Seattle", "zip_code": "98144", "country": "US", "state": "WA", "display_address": ["2200 S Jackson St", "Seattle, WA 98144"]}, "phone": "+12065682681", "display_phone": "(206) 568-2681", "distance": 3776.8641186119385}, {"id": "ME0JbwrSqB7dXM6jvewa9w", "alias": "ras-dashen-seattle", "name": "Ras Dashen", "image_url": "https://s3-media1.fl.yelpcdn.com/bphoto/IsZpnxmjtbmnXVq4yYMt5A/o.jpg", "is_closed": false, "url": "https://www.yelp.com/biz/ras-dashen-seattle?adjust_creative=Q_QuqfoFu2F6UgbKCZ1miA&utm_campaign=yelp_api_v3&utm_medium=api_v3_business_search&utm_source=Q_QuqfoFu2F6UgbKCZ1miA", "review_count": 134, "categories": [{"alias": "ethiopian", "title": "Ethiopian"}], "rating": 4.5, "coordinates": {"latitude": 47.60776, "longitude": -122.29567}, "transactions": ["delivery", "pickup"], "price": "$$", "location": {"address1": "2801 E Cherry St", "address2": "", "address3": "", "city": "Seattle", "zip_code": "98122", "country": "US", "state": "WA", "display_address": ["2801 E Cherry St", "Seattle, WA 98122"]}, "phone": "+12067097626", "display_phone": "(206) 709-7626", "distance": 3573.1685946187927}, {"id": "FQF_IrtK90XO3rgVOtISJg", "alias": "alem-restaurant-seattle-2", "name": "Alem Restaurant", "image_url": "https://s3-media2.fl.yelpcdn.com/bphoto/ORxzStz6-mjwn1ii50irMA/o.jpg", "is_closed": false, "url": "https://www.yelp.com/biz/alem-restaurant-seattle-2?adjust_creative=Q_QuqfoFu2F6UgbKCZ1miA&utm_campaign=yelp_api_v3&utm_medium=api_v3_business_search&utm_source=Q_QuqfoFu2F6UgbKCZ1miA", "review_count": 9, "categories": [{"alias": "ethiopian", "title": "Ethiopian"}], "rating": 5.0, "coordinates": {"latitude": 47.56355, "longitude": -122.28825}, "transactions": ["delivery", "restaurant_reservation", "pickup"], "location": {"address1": "4423 Rainier Ave S", "address2": "", "address3": null, "city": "Seattle", "zip_code": "98118", "country": "US", "state": "WA", "display_address": ["4423 Rainier Ave S", "Seattle, WA 98118"]}, "phone": "+12067233587", "display_phone": "(206) 723-3587", "distance": 7736.7715108726115}, {"id": "IMz_69U-RSmrker4yfK_rg", "alias": "delish-ethiopian-cuisine-seattle-2", "name": "Delish Ethiopian Cuisine", "image_url": "https://s3-media3.fl.yelpcdn.com/bphoto/QhXOCcEVbzdpMpyaJqc7Sw/o.jpg", "is_closed": false, "url": "https://www.yelp.com/biz/delish-ethiopian-cuisine-seattle-2?adjust_creative=Q_QuqfoFu2F6UgbKCZ1miA&utm_campaign=yelp_api_v3&utm_medium=api_v3_business_search&utm_source=Q_QuqfoFu2F6UgbKCZ1miA", "review_count": 217, "categories": [{"alias": "ethiopian", "title": "Ethiopian"}, {"alias": "vegan", "title": "Vegan"}], "rating": 5.0, "coordinates": {"latitude": 47.550998, "longitude": -122.27786}, "transactions": ["delivery", "pickup"], "price": "$$", "location": {"address1": "5701 Rainier Ave S", "address2": "", "address3": "", "city": "Seattle", "zip_code": "98118", "country": "US", "state": "WA", "display_address": ["5701 Rainier Ave S", "Seattle, WA 98118"]}, "phone": "+12067233821", "display_phone": "(206) 723-3821", "distance": 9336.760016963133}, {"id": "YJxzuhg15f31WNgDQfiwMw", "alias": "cafe-ibex-seattle", "name": "Cafe Ibex", "image_url": "https://s3-media1.fl.yelpcdn.com/bphoto/S2DtPJhyvab8HWt1JMPuEQ/o.jpg", "is_closed": false, "url": "https://www.yelp.com/biz/cafe-ibex-seattle?adjust_creative=Q_QuqfoFu2F6UgbKCZ1miA&utm_campaign=yelp_api_v3&utm_medium=api_v3_business_search&utm_source=Q_QuqfoFu2F6UgbKCZ1miA", "review_count": 180, "categories": [{"alias": "ethiopian", "title": "Ethiopian"}], "rating": 4.5, "coordinates": {"latitude": 47.574278289178, "longitude": -122.29732096801}, "transactions": ["delivery", "pickup"], "price": "$$", "location": {"address1": "3219 Martin Luther King Jr Way S", "address2": "", "address3": "", "city": "Seattle", "zip_code": "98144", "country": "US", "state": "WA", "display_address": ["3219 Martin Luther King Jr Way S", "Seattle, WA 98144"]}, "phone": "+12067217537", "display_phone": "(206) 721-7537", "distance": 6366.8141415843575}, {"id": "BC3aJOit7o-G-LVYaBA2kg", "alias": "queen-sheba-seattle-3", "name": "Queen Sheba", "image_url": "https://s3-media1.fl.yelpcdn.com/bphoto/ffH-ThUlXr1-YPqof-78Kw/o.jpg", "is_closed": false, "url": "https://www.yelp.com/biz/queen-sheba-seattle-3?adjust_creative=Q_QuqfoFu2F6UgbKCZ1miA&utm_campaign=yelp_api_v3&utm_medium=api_v3_business_search&utm_source=Q_QuqfoFu2F6UgbKCZ1miA", "review_count": 350, "categories": [{"alias": "ethiopian", "title": "Ethiopian"}], "rating": 3.5, "coordinates": {"latitude": 47.62011, "longitude": -122.32011}, "transactions": ["delivery", "pickup"], "price": "$$", "location": {"address1": "916 E John St", "address2": "", "address3": "", "city": "Seattle", "zip_code": "98102", "country": "US", "state": "WA", "display_address": ["916 E John St", "Seattle, WA 98102"]}, "phone": "+12063220852", "display_phone": "(206) 322-0852", "distance": 1294.8726784880246}, {"id": "u7RktNJOHu6RK9jgjGQ3KQ", "alias": "east-african-imports-and-restaurant-seattle", "name": "East African Imports & Restaurant", "image_url": "https://s3-media1.fl.yelpcdn.com/bphoto/0r-vi-cVGBOARMdf1RmNUQ/o.jpg", "is_closed": false, "url": "https://www.yelp.com/biz/east-african-imports-and-restaurant-seattle?adjust_creative=Q_QuqfoFu2F6UgbKCZ1miA&utm_campaign=yelp_api_v3&utm_medium=api_v3_business_search&utm_source=Q_QuqfoFu2F6UgbKCZ1miA", "review_count": 40, "categories": [{"alias": "ethiopian", "title": "Ethiopian"}], "rating": 4.5, "coordinates": {"latitude": 47.6001605483608, "longitude": -122.301681096734}, "transactions": ["delivery", "pickup"], "price": "$$", "location": {"address1": "306 23rd Ave S", "address2": "Ste 104", "address3": "", "city": "Seattle", "zip_code": "98144", "country": "US", "state": "WA", "display_address": ["306 23rd Ave S", "Ste 104", "Seattle, WA 98144"]}, "phone": "+12063227717", "display_phone": "(206) 322-7717", "distance": 3784.0275629959638}, {"id": "THCCSwYbOEkQ0Z54xL3vCg", "alias": "jebena-cafe-seattle", "name": "Jebena Cafe", "image_url": "https://s3-media1.fl.yelpcdn.com/bphoto/Y1dNFMllE3_PrvRdt_VY0Q/o.jpg", "is_closed": false, "url": "https://www.yelp.com/biz/jebena-cafe-seattle?adjust_creative=Q_QuqfoFu2F6UgbKCZ1miA&utm_campaign=yelp_api_v3&utm_medium=api_v3_business_search&utm_source=Q_QuqfoFu2F6UgbKCZ1miA", "review_count": 454, "categories": [{"alias": "ethiopian", "title": "Ethiopian"}], "rating": 4.5, "coordinates": {"latitude": 47.71416, "longitude": -122.31196}, "transactions": ["delivery"], "price": "$$", "location": {"address1": "1510 NE 117th St", "address2": "", "address3": "", "city": "Seattle", "zip_code": "98125", "country": "US", "state": "WA", "display_address": ["1510 NE 117th St", "Seattle, WA 98125"]}, "phone": "+12063650757", "display_phone": "(206) 365-0757", "distance": 10021.7789382089}, {"id": "0BlqNgcFAM3zjfN1xHvllw", "alias": "zagol-ethiopian-restaurant-seattle-3", "name": "Zagol Ethiopian Restaurant", "image_url": "https://s3-media2.fl.yelpcdn.com/bphoto/S_pAECZozU6--2Z3zdtSlg/o.jpg", "is_closed": false, "url": "https://www.yelp.com/biz/zagol-ethiopian-restaurant-seattle-3?adjust_creative=Q_QuqfoFu2F6UgbKCZ1miA&utm_campaign=yelp_api_v3&utm_medium=api_v3_business_search&utm_source=Q_QuqfoFu2F6UgbKCZ1miA", "review_count": 85, "categories": [{"alias": "ethiopian", "title": "Ethiopian"}], "rating": 4.5, "coordinates": {"latitude": 47.6081753625828, "longitude": -122.29670807337963}, "transactions": ["delivery"], "location": {"address1": "2722 E Cherry St", "address2": "", "address3": null, "city": "Seattle", "zip_code": "98122", "country": "US", "state": "WA", "display_address": ["2722 E Cherry St", "Seattle, WA 98122"]}, "phone": "+12063221019", "display_phone": "(206) 322-1019", "distance": 3483.5772919571527}, {"id": "LlknJk1Ah9F1LsiohykL6A", "alias": "sunset-cafe-seattle", "name": "Sunset Cafe", "image_url": "https://s3-media2.fl.yelpcdn.com/bphoto/HogZjE_3ckxtU7kH7HVuYg/o.jpg", "is_closed": false, "url": "https://www.yelp.com/biz/sunset-cafe-seattle?adjust_creative=Q_QuqfoFu2F6UgbKCZ1miA&utm_campaign=yelp_api_v3&utm_medium=api_v3_business_search&utm_source=Q_QuqfoFu2F6UgbKCZ1miA", "review_count": 296, "categories": [{"alias": "ethiopian", "title": "Ethiopian"}], "rating": 4.5, "coordinates": {"latitude": 47.52994, "longitude": -122.27022}, "transactions": ["delivery", "pickup"], "price": "$$", "location": {"address1": "8115 Rainier Ave S", "address2": "", "address3": "", "city": "Seattle", "zip_code": "98118", "country": "US", "state": "WA", "display_address": ["8115 Rainier Ave S", "Seattle, WA 98118"]}, "phone": "+12067220342", "display_phone": "(206) 722-0342", "distance": 11690.44509988032}, {"id": "l-_nxcFs8N9K9AjVhFhgpQ", "alias": "zobel-seattle", "name": "Zobel", "image_url": "https://s3-media2.fl.yelpcdn.com/bphoto/hUayDO1i3g3RSTdiER3nIA/o.jpg", "is_closed": false, "url": "https://www.yelp.com/biz/zobel-seattle?adjust_creative=Q_QuqfoFu2F6UgbKCZ1miA&utm_campaign=yelp_api_v3&utm_medium=api_v3_business_search&utm_source=Q_QuqfoFu2F6UgbKCZ1miA", "review_count": 76, "categories": [{"alias": "ethiopian", "title": "Ethiopian"}], "rating": 3.5, "coordinates": {"latitude": 47.6059837341309, "longitude": -122.315933227539}, "transactions": ["delivery", "pickup"], "price": "$$", "location": {"address1": "1219 E Jefferson St", "address2": "", "address3": "", "city": "Seattle", "zip_code": "98122", "country": "US", "state": "WA", "display_address": ["1219 E Jefferson St", "Seattle, WA 98122"]}, "phone": "+12063231408", "display_phone": "(206) 323-1408", "distance": 2616.2360817173603}, {"id": "D_pc5BWCJf654wUSsnMCsQ", "alias": "kezira-cafe-seattle-3", "name": "Kezira Cafe", "image_url": "https://s3-media4.fl.yelpcdn.com/bphoto/gUO0qjse3VNSE3TFjOkarw/o.jpg", "is_closed": false, "url": "https://www.yelp.com/biz/kezira-cafe-seattle-3?adjust_creative=Q_QuqfoFu2F6UgbKCZ1miA&utm_campaign=yelp_api_v3&utm_medium=api_v3_business_search&utm_source=Q_QuqfoFu2F6UgbKCZ1miA", "review_count": 127, "categories": [{"alias": "ethiopian", "title": "Ethiopian"}, {"alias": "eritrean", "title": "Eritrean"}], "rating": 4.5, "coordinates": {"latitude": 47.5560946580853, "longitude": -122.283333849074}, "transactions": ["delivery", "pickup"], "price": "$$", "location": {"address1": "5100 Rainier Ave S", "address2": "", "address3": "", "city": "Seattle", "zip_code": "98118", "country": "US", "state": "WA", "display_address": ["5100 Rainier Ave S", "Seattle, WA 98118"]}, "phone": "+12065881024", "display_phone": "(206) 588-1024", "distance": 8644.727832335824}, {"id": "v5sUhe4EpXQmEQOSJF3pLQ", "alias": "habesha-cafe-seattle", "name": "Habesha Cafe", "image_url": "https://s3-media4.fl.yelpcdn.com/bphoto/KAEDB_1J7X7bd868-06-RA/o.jpg", "is_closed": false, "url": "https://www.yelp.com/biz/habesha-cafe-seattle?adjust_creative=Q_QuqfoFu2F6UgbKCZ1miA&utm_campaign=yelp_api_v3&utm_medium=api_v3_business_search&utm_source=Q_QuqfoFu2F6UgbKCZ1miA", "review_count": 87, "categories": [{"alias": "ethiopian", "title": "Ethiopian"}, {"alias": "cafes", "title": "Cafes"}, {"alias": "delis", "title": "Delis"}], "rating": 4.5, "coordinates": {"latitude": 47.55091, "longitude": -122.27731}, "transactions": ["delivery", "pickup"], "price": "$", "location": {"address1": "5710 Rainier Ave S", "address2": "", "address3": "", "city": "Seattle", "zip_code": "98118", "country": "US", "state": "WA", "display_address": ["5710 Rainier Ave S", "Seattle, WA 98118"]}, "phone": "+12063242527", "display_phone": "(206) 324-2527", "distance": 9370.785617616562}, {"id": "ZvdGuZtKaXNgh0ybZEsYgA", "alias": "sabah-restaurant-seattle", "name": "Sabah Restaurant", "image_url": "https://s3-media2.fl.yelpcdn.com/bphoto/we2gigdeIPRLYDojy7pFKg/o.jpg", "is_closed": false, "url": "https://www.yelp.com/biz/sabah-restaurant-seattle?adjust_creative=Q_QuqfoFu2F6UgbKCZ1miA&utm_campaign=yelp_api_v3&utm_medium=api_v3_business_search&utm_source=Q_QuqfoFu2F6UgbKCZ1miA", "review_count": 21, "categories": [{"alias": "halal", "title": "Halal"}, {"alias": "mediterranean", "title": "Mediterranean"}, {"alias": "ethiopian", "title": "Ethiopian"}], "rating": 5.0, "coordinates": {"latitude": 47.53278, "longitude": -122.27034}, "transactions": ["delivery", "pickup"], "location": {"address1": "7729 Rainier Ave S", "address2": "Ste A", "address3": null, "city": "Seattle", "zip_code": "98118", "country": "US", "state": "WA", "display_address": ["7729 Rainier Ave S", "Ste A", "Seattle, WA 98118"]}, "phone": "+12067233820", "display_phone": "(206) 723-3820", "distance": 11397.029016139419}, {"id": "ld22_roaEZ7lw4tifTu4dQ", "alias": "genis-ethiopian-corner-seattle-2", "name": "Geni's Ethiopian Corner", "image_url": "https://s3-media4.fl.yelpcdn.com/bphoto/NxReL27Vq8p4zNWLtIF8Gg/o.jpg", "is_closed": false, "url": "https://www.yelp.com/biz/genis-ethiopian-corner-seattle-2?adjust_creative=Q_QuqfoFu2F6UgbKCZ1miA&utm_campaign=yelp_api_v3&utm_medium=api_v3_business_search&utm_source=Q_QuqfoFu2F6UgbKCZ1miA", "review_count": 34, "categories": [{"alias": "foodstands", "title": "Food Stands"}, {"alias": "ethiopian", "title": "Ethiopian"}, {"alias": "gluten_free", "title": "Gluten-Free"}], "rating": 5.0, "coordinates": {"latitude": 47.63189, "longitude": -122.34676}, "transactions": [], "location": {"address1": "", "address2": "", "address3": null, "city": "Seattle", "zip_code": "98109", "country": "US", "state": "WA", "display_address": ["Seattle, WA 98109"]}, "phone": "+16412331057", "display_phone": "(641) 233-1057", "distance": 853.5261628162853}, {"id": "1KBmWMztYIYS1FdRzGYT7w", "alias": "meskel-ethiopian-restaurant-seattle", "name": "Meskel Ethiopian Restaurant", "image_url": "https://s3-media1.fl.yelpcdn.com/bphoto/1PUqnJ_ABsy050Wcz1HrfA/o.jpg", "is_closed": false, "url": "https://www.yelp.com/biz/meskel-ethiopian-restaurant-seattle?adjust_creative=Q_QuqfoFu2F6UgbKCZ1miA&utm_campaign=yelp_api_v3&utm_medium=api_v3_business_search&utm_source=Q_QuqfoFu2F6UgbKCZ1miA", "review_count": 161, "categories": [{"alias": "ethiopian", "title": "Ethiopian"}], "rating": 4.0, "coordinates": {"latitude": 47.6078, "longitude": -122.29856}, "transactions": ["delivery"], "price": "$$", "location": {"address1": "2605 E Cherry St", "address2": "", "address3": "", "city": "Seattle", "zip_code": "98122", "country": "US", "state": "WA", "display_address": ["2605 E Cherry St", "Seattle, WA 98122"]}, "phone": "+12068601724", "display_phone": "(206) 860-1724", "distance": 3391.1836952463177}, {"id": "vXrUcYABxksuGdFZzCwxFg", "alias": "massawa-eritrean-and-ethiopian-restaurant-seattle", "name": "Massawa Eritrean & Ethiopian Restaurant", "image_url": "https://s3-media2.fl.yelpcdn.com/bphoto/ynst4sumLSun8s6U6WViTA/o.jpg", "is_closed": false, "url": "https://www.yelp.com/biz/massawa-eritrean-and-ethiopian-restaurant-seattle?adjust_creative=Q_QuqfoFu2F6UgbKCZ1miA&utm_campaign=yelp_api_v3&utm_medium=api_v3_business_search&utm_source=Q_QuqfoFu2F6UgbKCZ1miA", "review_count": 11, "categories": [{"alias": "ethiopian", "title": "Ethiopian"}, {"alias": "eritrean", "title": "Eritrean"}, {"alias": "bars", "title": "Bars"}], "rating": 4.5, "coordinates": {"latitude": 47.5502751, "longitude": -122.2770271}, "transactions": [], "location": {"address1": "4411 S Mead St", "address2": null, "address3": "", "city": "Seattle", "zip_code": "98118", "country": "US", "state": "WA", "display_address": ["4411 S Mead St", "Seattle, WA 98118"]}, "phone": "+12064025542", "display_phone": "(206) 402-5542", "distance": 9419.729381604679}, {"id": "FbALdgjGClqWvpiNCXqRbQ", "alias": "agelgil-ethiopian-restaurant-seattle-3", "name": "Agelgil Ethiopian Restaurant", "image_url": "https://s3-media3.fl.yelpcdn.com/bphoto/Qx0XjdAJmZ8DHFCnhpP3ww/o.jpg", "is_closed": false, "url": "https://www.yelp.com/biz/agelgil-ethiopian-restaurant-seattle-3?adjust_creative=Q_QuqfoFu2F6UgbKCZ1miA&utm_campaign=yelp_api_v3&utm_medium=api_v3_business_search&utm_source=Q_QuqfoFu2F6UgbKCZ1miA", "review_count": 57, "categories": [{"alias": "ethiopian", "title": "Ethiopian"}], "rating": 4.5, "coordinates": {"latitude": 47.6081771850586, "longitude": -122.295875549316}, "transactions": ["delivery", "pickup"], "price": "$$", "location": {"address1": "2800 East Cherry St", "address2": "", "address3": "", "city": "Seattle", "zip_code": "98122", "country": "US", "state": "WA", "display_address": ["2800 East Cherry St", "Seattle, WA 98122"]}, "phone": "+12063246402", "display_phone": "(206) 324-6402", "distance": 3531.1953270360946}, {"id": "F2TCJDirosibZ8ZrR6R7oA", "alias": "red-sea-bar-and-restaurant-seattle", "name": "Red Sea Bar & Restaurant", "image_url": "https://s3-media2.fl.yelpcdn.com/bphoto/EGqf2vJSU6H5BHczVBLMtQ/o.jpg", "is_closed": false, "url": "https://www.yelp.com/biz/red-sea-bar-and-restaurant-seattle?adjust_creative=Q_QuqfoFu2F6UgbKCZ1miA&utm_campaign=yelp_api_v3&utm_medium=api_v3_business_search&utm_source=Q_QuqfoFu2F6UgbKCZ1miA", "review_count": 1, "categories": [{"alias": "bars", "title": "Bars"}, {"alias": "ethiopian", "title": "Ethiopian"}], "rating": 5.0, "coordinates": {"latitude": 47.57767, "longitude": -122.29589}, "transactions": ["delivery"], "location": {"address1": "2814 Martin Luther King Jr Way S", "address2": "", "address3": null, "city": "Seattle", "zip_code": "98144", "country": "US", "state": "WA", "display_address": ["2814 Martin Luther King Jr Way S", "Seattle, WA 98144"]}, "phone": "+12065357350", "display_phone": "(206) 535-7350", "distance": 6063.629569669476}, {"id": "2Yidng7-i4Gv1yF_DoQLIA", "alias": "hahu-cafe-seattle", "name": "HaHu Cafe", "image_url": "https://s3-media1.fl.yelpcdn.com/bphoto/P5c3ehph9Np6t_rMVh3iEA/o.jpg", "is_closed": false, "url": "https://www.yelp.com/biz/hahu-cafe-seattle?adjust_creative=Q_QuqfoFu2F6UgbKCZ1miA&utm_campaign=yelp_api_v3&utm_medium=api_v3_business_search&utm_source=Q_QuqfoFu2F6UgbKCZ1miA", "review_count": 2, "categories": [{"alias": "bars", "title": "Bars"}, {"alias": "ethiopian", "title": "Ethiopian"}], "rating": 3.0, "coordinates": {"latitude": 47.5996772, "longitude": -122.3161316}, "transactions": ["delivery", "pickup"], "location": {"address1": "1221 S Main St", "address2": "Ste 202", "address3": "", "city": "Seattle", "zip_code": "98144", "country": "US", "state": "WA", "display_address": ["1221 S Main St", "Ste 202", "Seattle, WA 98144"]}, "phone": "+12062263858", "display_phone": "(206) 226-3858", "distance": 3209.8709755874916}, {"id": "2je9YEOwW9vQwN6goW3xzA", "alias": "fidel-ethiopian-bar-n-restaurant-seattle-2", "name": "Fidel Ethiopian Bar N Restaurant", "image_url": "https://s3-media4.fl.yelpcdn.com/bphoto/-xY9KMqykT3luBzHycVCpQ/o.jpg", "is_closed": false, "url": "https://www.yelp.com/biz/fidel-ethiopian-bar-n-restaurant-seattle-2?adjust_creative=Q_QuqfoFu2F6UgbKCZ1miA&utm_campaign=yelp_api_v3&utm_medium=api_v3_business_search&utm_source=Q_QuqfoFu2F6UgbKCZ1miA", "review_count": 11, "categories": [{"alias": "ethiopian", "title": "Ethiopian"}], "rating": 4.5, "coordinates": {"latitude": 47.52353, "longitude": -122.2762}, "transactions": ["delivery", "pickup"], "location": {"address1": "8824 Renton Ave S", "address2": null, "address3": "", "city": "Seattle", "zip_code": "98118", "country": "US", "state": "WA", "display_address": ["8824 Renton Ave S", "Seattle, WA 98118"]}, "phone": "+12067222011", "display_phone": "(206) 722-2011", "distance": 12166.712277203207}, {"id": "x26j4GeZF3io-j_K6S8ftQ", "alias": "wonder-coffee-and-sports-bar-seattle-5", "name": "Wonder Coffee & Sports Bar", "image_url": "https://s3-media3.fl.yelpcdn.com/bphoto/dCsFWAB4Dmf6LshbtUoo9g/o.jpg", "is_closed": false, "url": "https://www.yelp.com/biz/wonder-coffee-and-sports-bar-seattle-5?adjust_creative=Q_QuqfoFu2F6UgbKCZ1miA&utm_campaign=yelp_api_v3&utm_medium=api_v3_business_search&utm_source=Q_QuqfoFu2F6UgbKCZ1miA", "review_count": 88, "categories": [{"alias": "sportsbars", "title": "Sports Bars"}, {"alias": "ethiopian", "title": "Ethiopian"}, {"alias": "sandwiches", "title": "Sandwiches"}], "rating": 4.0, "coordinates": {"latitude": 47.59967, "longitude": -122.30843}, "transactions": ["delivery", "pickup"], "price": "$$", "location": {"address1": "1800 S Jackson St", "address2": "", "address3": "", "city": "Seattle", "zip_code": "98144", "country": "US", "state": "WA", "display_address": ["1800 S Jackson St", "Seattle, WA 98144"]}, "phone": "+12065380044", "display_phone": "(206) 538-0044", "distance": 3529.3684125306195}, {"id": "E2RsFwEh-HAsdZiGNevKFw", "alias": "enat-ethiopian-restaurant-seattle", "name": "Enat Ethiopian Restaurant", "image_url": "https://s3-media2.fl.yelpcdn.com/bphoto/id_X4PhhLwnFMqnfPUaN_Q/o.jpg", "is_closed": false, "url": "https://www.yelp.com/biz/enat-ethiopian-restaurant-seattle?adjust_creative=Q_QuqfoFu2F6UgbKCZ1miA&utm_campaign=yelp_api_v3&utm_medium=api_v3_business_search&utm_source=Q_QuqfoFu2F6UgbKCZ1miA", "review_count": 288, "categories": [{"alias": "ethiopian", "title": "Ethiopian"}], "rating": 4.0, "coordinates": {"latitude": 47.713514876755504, "longitude": -122.31227450998647}, "transactions": ["delivery", "pickup"], "price": "$", "location": {"address1": "11546 15th Ave NE", "address2": "", "address3": "", "city": "Seattle", "zip_code": "98125", "country": "US", "state": "WA", "display_address": ["11546 15th Ave NE", "Seattle, WA 98125"]}, "phone": "+12063624901", "display_phone": "(206) 362-4901", "distance": 9949.112204001485}, {"id": "-TKhP1oHTJnjSDJavVzqQQ", "alias": "ahadu-ethiopian-restaurant-seattle", "name": "Ahadu Ethiopian Restaurant", "image_url": "https://s3-media1.fl.yelpcdn.com/bphoto/6XPTUKtiHUrqecEes_1HXQ/o.jpg", "is_closed": false, "url": "https://www.yelp.com/biz/ahadu-ethiopian-restaurant-seattle?adjust_creative=Q_QuqfoFu2F6UgbKCZ1miA&utm_campaign=yelp_api_v3&utm_medium=api_v3_business_search&utm_source=Q_QuqfoFu2F6UgbKCZ1miA", "review_count": 97, "categories": [{"alias": "ethiopian", "title": "Ethiopian"}], "rating": 4.5, "coordinates": {"latitude": 47.7139844, "longitude": -122.3120388}, "transactions": ["delivery", "pickup"], "price": "$$", "location": {"address1": "1508 NE 117th St", "address2": null, "address3": "", "city": "Seattle", "zip_code": "98125", "country": "US", "state": "WA", "display_address": ["1508 NE 117th St", "Seattle, WA 98125"]}, "phone": "+12064403399", "display_phone": "(206) 440-3399", "distance": 10003.604786687063}, {"id": "PhcmTPAANz9XrjDTcpkm6g", "alias": "sheger-ethiopian-restaurant-seattle", "name": "Sheger Ethiopian Restaurant", "image_url": "https://s3-media4.fl.yelpcdn.com/bphoto/YBJJE1CbCBzxxCF_eMkSBw/o.jpg", "is_closed": false, "url": "https://www.yelp.com/biz/sheger-ethiopian-restaurant-seattle?adjust_creative=Q_QuqfoFu2F6UgbKCZ1miA&utm_campaign=yelp_api_v3&utm_medium=api_v3_business_search&utm_source=Q_QuqfoFu2F6UgbKCZ1miA", "review_count": 10, "categories": [{"alias": "ethiopian", "title": "Ethiopian"}], "rating": 4.0, "coordinates": {"latitude": 47.5502751, "longitude": -122.2770271}, "transactions": ["delivery"], "price": "$$", "location": {"address1": "4411 S Mead St", "address2": "", "address3": "", "city": "Seattle", "zip_code": "98118", "country": "US", "state": "WA", "display_address": ["4411 S Mead St", "Seattle, WA 98118"]}, "phone": "+12067231971", "display_phone": "(206) 723-1971", "distance": 9419.729381604679}, {"id": "gLLnmq-TkXN0oxRYLtBiZQ", "alias": "fanas-cuisine-seattle", "name": "Fana's Cuisine", "image_url": "https://s3-media3.fl.yelpcdn.com/bphoto/fyKInpuN6mT7POjnFO_OBw/o.jpg", "is_closed": false, "url": "https://www.yelp.com/biz/fanas-cuisine-seattle?adjust_creative=Q_QuqfoFu2F6UgbKCZ1miA&utm_campaign=yelp_api_v3&utm_medium=api_v3_business_search&utm_source=Q_QuqfoFu2F6UgbKCZ1miA", "review_count": 15, "categories": [{"alias": "ethiopian", "title": "Ethiopian"}], "rating": 4.0, "coordinates": {"latitude": 47.57111, "longitude": -122.29126}, "transactions": ["delivery", "pickup"], "price": "$", "location": {"address1": "3621 33rd Ave S", "address2": "", "address3": "", "city": "Seattle", "zip_code": "98144", "country": "US", "state": "WA", "display_address": ["3621 33rd Ave S", "Seattle, WA 98144"]}, "phone": "+12067087417", "display_phone": "(206) 708-7417", "distance": 6893.217090991122}, {"id": "Nq2QBSPq40WZgUzXD93u7w", "alias": "blue-nile-seattle-2", "name": "Blue Nile", "image_url": "https://s3-media2.fl.yelpcdn.com/bphoto/x4METySDvkLMO-O3s_LiTQ/o.jpg", "is_closed": false, "url": "https://www.yelp.com/biz/blue-nile-seattle-2?adjust_creative=Q_QuqfoFu2F6UgbKCZ1miA&utm_campaign=yelp_api_v3&utm_medium=api_v3_business_search&utm_source=Q_QuqfoFu2F6UgbKCZ1miA", "review_count": 56, "categories": [{"alias": "ethiopian", "title": "Ethiopian"}], "rating": 4.0, "coordinates": {"latitude": 47.53196, "longitude": -122.2706}, "transactions": ["delivery", "pickup"], "price": "$", "location": {"address1": "7821 Rainier Ave S", "address2": "", "address3": "", "city": "Seattle", "zip_code": "98118", "country": "US", "state": "WA", "display_address": ["7821 Rainier Ave S", "Seattle, WA 98118"]}, "phone": "+12063208501", "display_phone": "(206) 320-8501", "distance": 11474.30308798143}, {"id": "5IQopbLST4fHUitX4W0V1w", "alias": "kaffa-coffee-and-wine-bar-seattle-2", "name": "Kaffa Coffee & Wine Bar", "image_url": "https://s3-media1.fl.yelpcdn.com/bphoto/BgA9tvoF31jP3GpQjoJMqA/o.jpg", "is_closed": false, "url": "https://www.yelp.com/biz/kaffa-coffee-and-wine-bar-seattle-2?adjust_creative=Q_QuqfoFu2F6UgbKCZ1miA&utm_campaign=yelp_api_v3&utm_medium=api_v3_business_search&utm_source=Q_QuqfoFu2F6UgbKCZ1miA", "review_count": 65, "categories": [{"alias": "ethiopian", "title": "Ethiopian"}, {"alias": "coffee", "title": "Coffee & Tea"}, {"alias": "breakfast_brunch", "title": "Breakfast & Brunch"}], "rating": 4.5, "coordinates": {"latitude": 47.5298805, "longitude": -122.2697067}, "transactions": ["delivery", "pickup"], "price": "$$", "location": {"address1": "8136 Rainier Ave S", "address2": null, "address3": "", "city": "Seattle", "zip_code": "98118", "country": "US", "state": "WA", "display_address": ["8136 Rainier Ave S", "Seattle, WA 98118"]}, "phone": "+12064533558", "display_phone": "(206) 453-3558", "distance": 11721.818343638055}, {"id": "aXM_hRDLrvgX87_jUUQy5g", "alias": "paradise-restaurant-seattle", "name": "Paradise Restaurant", "image_url": "", "is_closed": false, "url": "https://www.yelp.com/biz/paradise-restaurant-seattle?adjust_creative=Q_QuqfoFu2F6UgbKCZ1miA&utm_campaign=yelp_api_v3&utm_medium=api_v3_business_search&utm_source=Q_QuqfoFu2F6UgbKCZ1miA", "review_count": 4, "categories": [{"alias": "ethiopian", "title": "Ethiopian"}], "rating": 4.5, "coordinates": {"latitude": 47.5373712765657, "longitude": -122.270302735269}, "transactions": ["delivery"], "location": {"address1": "7250 Rainier Ave S", "address2": "", "address3": null, "city": "Seattle", "zip_code": "98118", "country": "US", "state": "WA", "display_address": ["7250 Rainier Ave S", "Seattle, WA 98118"]}, "phone": "+12066594106", "display_phone": "(206) 659-4106", "distance": 10944.137819324966}, {"id": "M_REjnKHx8HQk-5DnL-C0A", "alias": "monona-cafe-and-restaurant-seattle", "name": "Monona Cafe and Restaurant", "image_url": "https://s3-media2.fl.yelpcdn.com/bphoto/hzGNCFG9SV7AMOG9R3TdNg/o.jpg", "is_closed": false, "url": "https://www.yelp.com/biz/monona-cafe-and-restaurant-seattle?adjust_creative=Q_QuqfoFu2F6UgbKCZ1miA&utm_campaign=yelp_api_v3&utm_medium=api_v3_business_search&utm_source=Q_QuqfoFu2F6UgbKCZ1miA", "review_count": 11, "categories": [{"alias": "ethiopian", "title": "Ethiopian"}, {"alias": "cafes", "title": "Cafes"}, {"alias": "eritrean", "title": "Eritrean"}], "rating": 4.0, "coordinates": {"latitude": 47.5408671047097, "longitude": -122.282824963331}, "transactions": ["delivery", "pickup"], "price": "$", "location": {"address1": "6754 Martin Luther King Jr S", "address2": "", "address3": "", "city": "Seattle", "zip_code": "98108", "country": "US", "state": "WA", "display_address": ["6754 Martin Luther King Jr S", "Seattle, WA 98108"]}, "phone": "+12067660607", "display_phone": "(206) 766-0607", "distance": 10198.404586675768}, {"id": "PJHQqeUaiVQg96cyCnexJA", "alias": "ethio-market-seattle", "name": "Ethio Market", "image_url": "https://s3-media2.fl.yelpcdn.com/bphoto/nYG4QNj-HAcasio7P2Q-Kw/o.jpg", "is_closed": false, "url": "https://www.yelp.com/biz/ethio-market-seattle?adjust_creative=Q_QuqfoFu2F6UgbKCZ1miA&utm_campaign=yelp_api_v3&utm_medium=api_v3_business_search&utm_source=Q_QuqfoFu2F6UgbKCZ1miA", "review_count": 2, "categories": [{"alias": "ethiopian", "title": "Ethiopian"}, {"alias": "herbsandspices", "title": "Herbs & Spices"}], "rating": 3.0, "coordinates": {"latitude": 47.5270146, "longitude": -122.26955}, "transactions": [], "location": {"address1": "8432 Rainier Ave S", "address2": "", "address3": null, "city": "Seattle", "zip_code": "98118", "country": "US", "state": "WA", "display_address": ["8432 Rainier Ave S", "Seattle, WA 98118"]}, "phone": "+12067258389", "display_phone": "(206) 725-8389", "distance": 12008.75512205426}]